$GNGGA,072622.00,3000.16410,N,11957.46578,E,1,12,0.60,22.5,M,6.9,M,,*4C
$GNGSA,A,3,22,03,17,06,19,28,09,01,23,02,,,1.08,0.60,0.90,1*0D
$GNGSA,A,3,03,04,12,06,08,01,15,10,11,,,,1.08,0.60,0.90,4*0C
$GPGSV,3,1,11,01,06,060,31,02,16,263,19,03,35,047,21,06,50,289,31,0*69
$GPGSV,3,2,11,09,16,129,30,17,65,017,31,19,51,334,22,22,13,042,29,0*65
$GPGSV,3,3,11,23,17,101,19,24,01,293,,28,52,182,21,0*50
$BDGSV,4,1,13,01,48,144,32,02,38,236,28,03,54,199,34,04,34,121,33,0*7F
$BDGSV,4,2,13,05,17,256,,06,38,170,31,07,16,192,19,08,59,007,30,0*79
$BDGSV,4,3,13,09,16,189,14,10,27,220,32,11,08,300,27,12,53,337,31,0*71
$BDGSV,4,4,13,15,50,322,24,0*42
$GNGLL,3000.16410,N,11957.46578,E,072622.00,A,A*76
$GNRMC,072623.00,A,3000.16690,N,11957.48075,E,48.096,78.03,290716,,,A,V*02
$GNVTG,78.03,T,,M,48.096,N,89.073,K,A*19
$GNGGA,072623.00,3000.16690,N,11957.48075,E,1,12,0.60,22.2,M,6.9,M,,*46
$GNGSA,A,3,22,03,17,06,19,28,09,01,23,02,,,1.08,0.60,0.90,1*0D
$GNGSA,A,3,03,04,12,06,08,01,15,10,11,,,,1.08,0.60,0.90,4*0C
$GPGSV,3,1,11,01,06,060,30,02,16,263,17,03,35,047,21,06,50,289,32,0*65
$GPGSV,3,2,11,09,16,129,30,17,65,017,32,19,51,334,23,22,13,042,28,0*66
$GPGSV,3,3,11,23,17,101,18,24,01,293,,28,52,182,21,0*51
$BDGSV,4,1,13,01,48,144,32,02,38,236,28,03,54,199,34,04,34,121,33,0*7F
$BDGSV,4,2,13,05,17,256,,06,38,170,31,07,16,192,16,08,59,007,31,0*77
$BDGSV,4,3,13,09,16,189,12,10,27,220,33,11,08,300,26,12,53,337,31,0*77
$BDGSV,4,4,13,15,50,322,25,0*43
$GNGLL,3000.16690,N,11957.48075,E,072623.00,A,A*7B
$GNRMC,072624.00,A,3000.16964,N,11957.49603,E,48.987,78.46,290716,,,A,V*0F
$GNVTG,78.46,T,,M,48.987,N,90.724,K,A*1C
$GNGGA,072624.00,3000.16964,N,11957.49603,E,1,12,0.60,22.1,M,6.9,M,,*40
$GNGSA,A,3,22,03,17,06,19,28,09,01,23,02,,,1.08,0.60,0.90,1*0D
$GNGSA,A,3,03,04,12,06,08,01,15,10,11,,,,1.08,0.60,0.90,4*0C
$GPGSV,3,1,11,01,06,060,26,02,16,263,16,03,35,047,20,06,50,289,32,0*62
$GPGSV,3,2,11,09,16,129,29,17,65,017,31,19,51,334,32,22,13,042,19,0*6F
$GPGSV,3,3,11,23,17,101,21,24,01,293,,28,51,182,21,0*58
$BDGSV,4,1,13,01,48,144,30,02,38,236,28,03,54,199,35,04,34,121,33,0*7C
$BDGSV,4,2,13,05,17,256,,06,38,170,32,07,16,192,15,08,59,007,32,0*74
$BDGSV,4,3,13,09,16,189,11,10,27,220,34,11,08,300,25,12,53,337,33,0*72
$BDGSV,4,4,13,15,50,322,25,0*43
$GNGLL,3000.16964,N,11957.49603,E,072624.00,A,A*7E
$GNRMC,072625.00,A,3000.17234,N,11957.51156,E,49.784,78.68,290716,,,A,V*0F
$GNVTG,78.68,T,,M,49.784,N,92.200,K,A*1D
$GNGGA,072625.00,3000.17234,N,11957.51156,E,1,12,0.60,21.9,M,6.9,M,,*4B
$GNGSA,A,3,22,03,17,06,19,28,09,01,23,02,,,1.08,0.60,0.90,1*0D
$GNGSA,A,3,03,04,12,06,08,01,15,10,11,,,,1.08,0.60,0.90,4*0C
$GPGSV,3,1,11,01,06,060,25,02,16,263,17,03,35,047,18,06,50,289,32,0*6B
$GPGSV,3,2,11,09,16,129,28,17,65,017,31,19,51,334,31,22,13,042,19,0*6D
$GPGSV,3,3,11,23,17,101,24,24,01,293,,28,51,182,22,0*5E
$BDGSV,4,1,13,01,48,144,29,02,38,236,27,03,54,199,37,04,34,121,33,0*79
$BDGSV,4,2,13,05,17,256,,06,38,170,32,07,16,192,12,08,59,007,32,0*73
$BDGSV,4,3,13,09,16,189,10,10,27,220,33,11,08,300,25,12,53,337,33,0*74
$BDGSV,4,4,13,15,50,322,25,0*43
$GNGLL,3000.17234,N,11957.51156,E,072625.00,A,A*7E
$GNRMC,072626.00,A,3000.17500,N,11957.52737,E,50.458,79.12,290716,,,A,V*08
$GNVTG,79.12,T,,M,50.458,N,93.448,K,A*10
$GNGGA,072626.00,3000.17500,N,11957.52737,E,1,12,0.60,21.8,M,6.9,M,,*4B
$GNGSA,A,3,22,03,17,06,19,28,09,01,23,02,,,1.08,0.60,0.90,1*0D
$GNGSA,A,3,03,04,12,06,08,01,15,10,11,,,,1.08,0.60,0.90,4*0C
$GPGSV,3,1,11,01,06,060,30,02,16,263,18,03,35,047,16,06,50,289,34,0*68
$GPGSV,3,2,11,09,16,129,26,17,65,017,31,19,51,334,32,22,13,042,21,0*6B
$GPGSV,3,3,11,23,17,101,27,24,01,293,,28,51,182,22,0*5D
$BDGSV,4,1,13,01,48,144,27,02,38,236,27,03,54,199,36,04,34,121,33,0*76
$BDGSV,4,2,13,05,17,256,,06,38,170,31,07,16,192,09,08,59,007,33,0*7B
$BDGSV,4,3,13,09,16,189,10,10,27,220,34,11,08,300,24,12,53,337,34,0*75
$BDGSV,4,4,13,15,50,322,26,0*40
$GNGLL,3000.17500,N,11957.52737,E,072626.00,A,A*7F
$GNRMC,072627.00,A,3000.17766,N,11957.54337,E,51.048,79.15,290716,,,A,V*0A
$GNVTG,79.15,T,,M,51.048,N,94.541,K,A*1C
$GNGGA,072627.00,3000.17766,N,11957.54337,E,1,12,0.60,21.5,M,6.9,M,,*47
$GNGSA,A,3,22,03,17,06,19,28,09,01,23,02,,,1.08,0.60,0.90,1*0D
$GNGSA,A,3,03,04,12,06,08,01,15,10,11,,,,1.08,0.60,0.90,4*0C
$GPGSV,3,1,11,01,06,060,29,02,16,263,21,03,35,047,15,06,50,289,33,0*6E
$GPGSV,3,2,11,09,16,129,25,17,65,017,32,19,51,334,32,22,13,042,21,0*6B
$GPGSV,3,3,11,23,17,101,27,24,01,293,,28,51,182,23,0*5C
$BDGSV,4,1,13,01,48,144,26,02,38,236,27,03,54,199,37,04,34,121,32,0*77
$BDGSV,4,2,13,05,17,256,,06,38,170,32,07,16,192,08,08,59,007,33,0*79
$BDGSV,4,3,13,09,16,189,08,10,27,220,33,11,08,300,24,12,53,337,34,0*7B
$BDGSV,4,4,13,15,50,322,25,0*43
$GNGLL,3000.17766,N,11957.54337,E,072627.00,A,A*7E
$GNRMC,072628.00,A,3000.18030,N,11957.55956,E,51.663,79.29,290716,,,A,V*02
$GNVTG,79.29,T,,M,51.663,N,95.679,K,A*15
$GNGGA,072628.00,3000.18030,N,11957.55956,E,1,12,0.61,21.4,M,6.9,M,,*4F
$GNGSA,A,3,22,03,17,06,19,28,09,01,23,02,,,1.11,0.61,0.92,1*06
$GNGSA,A,3,03,04,12,06,08,15,10,11,,,,,1.11,0.61,0.92,4*06
$GPGSV,3,1,11,01,06,060,29,02,16,263,23,03,35,047,16,06,50,289,33,0*6F
$GPGSV,3,2,11,09,16,129,22,17,65,017,31,19,51,334,33,22,13,042,24,0*6B
$GPGSV,3,3,11,23,17,101,27,24,01,293,,28,51,182,24,0*5B
$BDGSV,4,1,13,01,48,144,,02,38,236,28,03,54,199,37,04,34,121,33,0*7D
$BDGSV,4,2,13,05,17,256,,06,38,170,31,07,16,192,08,08,59,007,32,0*7B
$BDGSV,4,3,13,09,16,189,,10,27,220,33,11,08,300,25,12,53,337,33,0*75
$BDGSV,4,4,13,15,50,322,25,0*43
$GNGLL,3000.18030,N,11957.55956,E,072628.00,A,A*76
$GNRMC,072629.00,A,3000.18303,N,11957.57591,E,52.223,79.10,290716,,,A,V*0C
$GNVTG,79.10,T,,M,52.223,N,96.718,K,A*19
$GNGGA,072629.00,3000.18303,N,11957.57591,E,1,12,0.61,21.4,M,6.9,M,,*48
$GNGSA,A,3,22,03,17,06,19,28,09,01,23,02,,,1.11,0.61,0.92,1*06
$GNGSA,A,3,03,04,12,06,08,15,10,11,,,,,1.11,0.61,0.92,4*06
$GPGSV,3,1,11,01,06,060,30,02,16,263,24,03,35,047,17,06,50,289,36,0*64
$GPGSV,3,2,11,09,16,129,18,17,65,017,32,19,51,334,31,22,13,042,25,0*62
$GPGSV,3,3,11,23,17,101,28,24,01,293,,28,51,182,26,0*56
$BDGSV,4,1,13,01,48,144,,02,38,236,27,03,54,199,36,04,34,121,33,0*73
$BDGSV,4,2,13,05,17,256,,06,38,170,31,07,16,192,08,08,59,007,32,0*7B
$BDGSV,4,3,13,09,16,189,,10,27,220,32,11,08,300,27,12,53,337,33,0*76
$BDGSV,4,4,13,15,50,322,23,0*45
$GNGLL,3000.18303,N,11957.57591,E,072629.00,A,A*71
$GNRMC,072630.00,A,3000.18576,N,11957.59230,E,52.116,79.18,290716,,,A,V*0F
$GNVTG,79.18,T,,M,52.116,N,96.518,K,A*16
$GNGGA,072630.00,3000.18576,N,11957.59230,E,1,12,0.61,21.4,M,6.9,M,,*46
$GNGSA,A,3,22,03,17,06,19,28,09,01,23,02,,,1.11,0.61,0.92,1*06
$GNGSA,A,3,03,04,12,06,08,15,10,11,,,,,1.11,0.61,0.92,4*06
$GPGSV,3,1,11,01,06,060,31,02,16,263,23,03,35,047,18,06,50,289,34,0*6F
$GPGSV,3,2,11,09,16,129,15,17,65,017,33,19,51,334,27,22,13,042,25,0*69
$GPGSV,3,3,11,23,17,101,28,24,01,293,,28,51,182,30,0*51
$BDGSV,4,1,13,01,48,144,,02,38,236,27,03,54,199,36,04,34,121,33,0*73
$BDGSV,4,2,13,05,17,256,,06,38,170,31,07,16,192,,08,59,007,32,0*73
$BDGSV,4,3,13,09,16,189,,10,27,220,31,11,08,300,27,12,53,337,34,0*72
$BDGSV,4,4,13,15,50,322,23,0*45
$GNGLL,3000.18576,N,11957.59230,E,072630.00,A,A*7F
$GNRMC,072631.00,A,3000.18841,N,11957.60863,E,51.877,79.50,290716,,,A,V*00
$GNVTG,79.50,T,,M,51.877,N,96.077,K,A*1B
$GNGGA,072631.00,3000.18841,N,11957.60863,E,1,12,0.61,21.5,M,6.9,M,,*49
$GNGSA,A,3,22,03,17,06,19,28,09,01,23,02,,,1.11,0.61,0.92,1*06
$GNGSA,A,3,03,04,12,06,08,15,10,11,,,,,1.11,0.61,0.92,4*06
$GPGSV,3,1,11,01,06,060,31,02,16,263,22,03,35,047,18,06,50,289,32,0*68
$GPGSV,3,2,11,09,16,129,16,17,65,017,32,19,51,334,33,22,13,042,27,0*6C
$GPGSV,3,3,11,23,17,101,28,24,01,293,,28,51,182,29,0*59
$BDGSV,4,1,13,01,48,144,,02,38,236,27,03,54,199,36,04,34,121,33,0*73
$BDGSV,4,2,13,05,17,256,,06,38,170,31,07,16,192,,08,59,007,33,0*72
$BDGSV,4,3,13,09,16,189,,10,27,220,31,11,08,300,25,12,53,337,34,0*70
$BDGSV,4,4,13,15,50,322,22,0*44
$GNGLL,3000.18841,N,11957.60863,E,072631.00,A,A*71
$GNRMC,072632.00,A,3000.19095,N,11957.62498,E,51.919,79.94,290716,,,A,V*08
$GNVTG,79.94,T,,M,51.919,N,96.154,K,A*1A
$GNGGA,072632.00,3000.19095,N,11957.62498,E,1,12,0.61,21.6,M,6.9,M,,*43
$GNGSA,A,3,22,03,17,06,19,28,09,01,23,02,,,1.11,0.61,0.92,1*06
$GNGSA,A,3,03,04,12,06,08,15,10,11,,,,,1.11,0.61,0.92,4*06
$GPGSV,3,1,11,01,06,060,29,02,16,263,22,03,35,047,16,06,50,289,34,0*69
$GPGSV,3,2,11,09,16,129,18,17,65,017,33,19,51,334,33,22,13,042,27,0*63
$GPGSV,3,3,11,23,17,101,28,24,01,293,,28,51,182,29,0*59
$BDGSV,4,1,13,01,48,144,28,02,38,236,28,03,54,199,37,04,34,121,32,0*76
$BDGSV,4,2,13,05,17,256,,06,38,170,32,07,16,192,,08,59,007,34,0*76
$BDGSV,4,3,13,09,16,189,,10,27,220,30,11,08,300,22,12,53,337,36,0*74
$BDGSV,4,4,13,15,50,322,23,0*45
$GNGLL,3000.19095,N,11957.62498,E,072632.00,A,A*78
$GNRMC,072633.00,A,3000.19336,N,11957.64134,E,51.879,80.49,290716,,,A,V*07
$GNVTG,80.49,T,,M,51.879,N,96.079,K,A*15
$GNGGA,072633.00,3000.19336,N,11957.64134,E,1,12,0.60,21.5,M,6.9,M,,*4F
$GNGSA,A,3,22,03,17,06,19,28,09,01,23,02,,,1.08,0.60,0.90,1*0D
$GNGSA,A,3,03,04,12,06,08,01,15,10,11,,,,1.08,0.60,0.90,4*0C
$GPGSV,3,1,11,01,06,060,28,02,16,263,23,03,35,047,19,06,50,289,34,0*66
$GPGSV,3,2,11,09,16,129,19,17,65,017,32,19,51,334,34,22,13,042,31,0*63
$GPGSV,3,3,11,23,17,101,28,24,01,293,,28,51,182,30,0*51
$BDGSV,4,1,13,01,48,144,30,02,38,236,28,03,54,199,36,04,34,121,32,0*7E
$BDGSV,4,2,13,05,17,256,,06,38,170,32,07,16,192,,08,59,007,35,0*77
$BDGSV,4,3,13,09,16,189,,10,27,220,29,11,08,300,19,12,53,337,37,0*75
$BDGSV,4,4,13,15,50,322,24,0*42
$GNGLL,3000.19336,N,11957.64134,E,072633.00,A,A*76
$GNRMC,072634.00,A,3000.19568,N,11957.65771,E,51.897,80.82,290716,,,A,V*0C
$GNVTG,80.82,T,,M,51.897,N,96.114,K,A*18
$GNGGA,072634.00,3000.19568,N,11957.65771,E,1,12,0.60,21.5,M,6.9,M,,*43
$GNGSA,A,3,22,03,17,06,19,28,09,01,23,02,,,1.08,0.60,0.90,1*0D
$GNGSA,A,3,03,04,12,06,08,01,15,10,11,,,,1.08,0.60,0.90,4*0C
$GPGSV,3,1,11,01,06,060,28,02,16,263,25,03,35,047,22,06,50,289,35,0*69
$GPGSV,3,2,11,09,16,129,18,17,65,017,32,19,51,334,35,22,13,042,32,0*60
$GPGSV,3,3,11,23,17,101,27,24,01,293,,28,51,182,32,0*5C
$BDGSV,4,1,13,01,48,144,33,02,38,236,29,03,54,199,36,04,34,121,32,0*7C
$BDGSV,4,2,13,05,17,256,,06,38,170,31,07,16,192,,08,59,007,34,0*75
$BDGSV,4,3,13,09,16,189,,10,27,220,28,11,08,300,18,12,53,337,37,0*75
$BDGSV,4,4,13,15,50,322,24,0*42
$GNGLL,3000.19568,N,11957.65771,E,072634.00,A,A*7A
$GNRMC,072635.00,A,3000.19796,N,11957.67408,E,51.785,80.90,290716,,,A,V*0E
$GNVTG,80.90,T,,M,51.785,N,95.906,K,A*1F
$GNGGA,072635.00,3000.19796,N,11957.67408,E,1,12,0.60,21.5,M,6.9,M,,*4E
$GNGSA,A,3,22,03,17,06,19,28,09,01,23,02,,,1.08,0.60,0.90,1*0D
$GNGSA,A,3,03,04,12,06,08,01,15,10,11,,,,1.08,0.60,0.90,4*0C
$GPGSV,3,1,11,01,06,060,33,02,16,263,26,03,35,047,25,06,50,289,35,0*67
$GPGSV,3,2,11,09,16,129,16,17,65,017,31,19,51,334,34,22,13,042,32,0*6C
$GPGSV,3,3,11,23,17,101,27,24,01,293,,28,51,182,27,0*58
$BDGSV,4,1,13,01,48,144,34,02,38,236,29,03,54,199,35,04,34,121,31,0*7B
$BDGSV,4,2,13,05,17,256,,06,38,170,31,07,16,192,,08,59,007,34,0*75
$BDGSV,4,3,13,09,16,189,,10,27,220,26,11,08,300,18,12,53,337,37,0*7B
$BDGSV,4,4,13,15,50,322,22,0*44
$GNGLL,3000.19796,N,11957.67408,E,072635.00,A,A*77
$GNRMC,072636.00,A,3000.20024,N,11957.69041,E,51.775,80.99,290716,,,A,V*08
$GNVTG,80.99,T,,M,51.775,N,95.888,K,A*1E
$GNGGA,072636.00,3000.20024,N,11957.69041,E,1,12,0.60,21.5,M,6.9,M,,*4E
$GNGSA,A,3,22,03,17,06,19,28,09,01,23,02,,,1.08,0.60,0.90,1*0D
$GNGSA,A,3,03,04,12,06,08,01,15,10,11,,,,1.08,0.60,0.90,4*0C
$GPGSV,3,1,11,01,06,060,31,02,16,263,27,03,35,047,26,06,50,289,36,0*64
$GPGSV,3,2,11,09,16,129,15,17,65,017,31,19,51,334,35,22,13,042,31,0*6D
$GPGSV,3,3,11,23,17,101,26,24,01,293,,28,51,182,32,0*5D
$BDGSV,4,1,13,01,48,144,34,02,38,236,29,03,54,199,35,04,34,121,32,0*78
$BDGSV,4,2,13,05,17,256,,06,38,170,30,07,16,192,,08,59,007,34,0*74
$BDGSV,4,3,13,09,16,189,,10,27,220,22,11,08,300,19,12,53,337,37,0*7E
$BDGSV,4,4,13,15,50,322,21,0*47
$GNGLL,3000.20024,N,11957.69041,E,072636.00,A,A*77
$GNRMC,072637.00,A,3000.20246,N,11957.70673,E,51.584,81.16,290716,,,A,V*0A
$GNVTG,81.16,T,,M,51.584,N,95.533,K,A*19
$GNGGA,072637.00,3000.20246,N,11957.70673,E,1,12,0.60,21.5,M,6.9,M,,*46
$GNGSA,A,3,22,03,17,06,19,28,09,01,23,02,,,1.08,0.60,0.90,1*0D
$GNGSA,A,3,03,04,12,06,08,01,15,10,11,,,,1.08,0.60,0.90,4*0C
$GPGSV,3,1,11,01,06,060,31,02,16,263,27,03,35,047,27,06,50,289,36,0*65
$GPGSV,3,2,11,09,16,129,15,17,65,017,31,19,51,334,35,22,13,042,32,0*6E
$GPGSV,3,3,11,23,17,101,25,24,01,293,,28,51,182,34,0*58
$BDGSV,4,1,13,01,48,144,34,02,38,236,28,03,54,199,35,04,34,121,32,0*79
$BDGSV,4,2,13,05,17,256,,06,38,170,29,07,16,192,,08,59,007,35,0*7D
$BDGSV,4,3,13,09,16,189,,10,27,220,21,11,08,300,21,12,53,337,37,0*76
$BDGSV,4,4,13,15,50,322,23,0*45
$GNGLL,3000.20246,N,11957.70673,E,072637.00,A,A*7F
$GNRMC,072638.00,A,3000.20463,N,11957.72306,E,51.622,81.41,290716,,,A,V*0C
$GNVTG,81.41,T,,M,51.622,N,95.604,K,A*13
$GNGGA,072638.00,3000.20463,N,11957.72306,E,1,12,0.60,21.7,M,6.9,M,,*4F
$GNGSA,A,3,22,03,17,06,19,28,09,01,23,02,,,1.08,0.60,0.90,1*0D
$GNGSA,A,3,03,04,12,06,08,01,15,10,11,,,,1.08,0.60,0.90,4*0C
$GPGSV,3,1,11,01,06,060,31,02,16,263,27,03,35,047,28,06,50,289,36,0*6A
$GPGSV,3,2,11,09,16,129,15,17,65,017,31,19,51,334,35,22,13,042,34,0*68
$GPGSV,3,3,11,23,17,101,25,24,01,293,,28,51,182,34,0*58
$BDGSV,4,1,13,01,48,144,35,02,38,236,29,03,54,199,34,04,34,121,32,0*78
$BDGSV,4,2,13,05,17,256,,06,38,170,28,07,16,192,25,08,59,007,34,0*7A
$BDGSV,4,3,13,09,16,189,,10,27,220,17,11,08,300,19,12,53,337,36,0*79
$BDGSV,4,4,13,15,50,322,22,0*44
$GNGLL,3000.20463,N,11957.72306,E,072638.00,A,A*74
$GNRMC,072639.00,A,3000.20671,N,11957.73935,E,51.492,81.84,290716,,,A,V*07
$GNVTG,81.84,T,,M,51.492,N,95.363,K,A*17
$GNGGA,072639.00,3000.20671,N,11957.73935,E,1,12,0.60,21.8,M,6.9,M,,*4B
$GNGSA,A,3,22,03,17,06,19,28,09,01,23,02,,,1.08,0.60,0.90,1*0D
$GNGSA,A,3,03,04,12,06,08,01,15,10,11,,,,1.08,0.60,0.90,4*0C
$GPGSV,3,1,11,01,06,060,31,02,16,263,28,03,35,047,32,06,50,289,36,0*6E
$GPGSV,3,2,11,09,16,129,17,17,65,017,31,19,51,334,35,22,13,042,34,0*6A
$GPGSV,3,3,11,23,17,101,24,24,01,293,,28,51,182,35,0*58
$BDGSV,4,1,13,01,48,144,36,02,38,236,29,03,54,199,33,04,34,121,32,0*7C
$BDGSV,4,2,13,05,17,256,,06,38,170,27,07,16,192,26,08,59,007,35,0*77
$BDGSV,4,3,13,09,17,189,,10,27,220,17,11,08,300,18,12,53,337,37,0*78
$BDGSV,4,4,13,15,50,322,22,0*44
$GNGLL,3000.20671,N,11957.73935,E,072639.00,A,A*7F
$GNRMC,072640.00,A,3000.20872,N,11957.75563,E,51.490,82.15,290716,,,A,V*04
$GNVTG,82.15,T,,M,51.490,N,95.359,K,A*17
$GNGGA,072640.00,3000.20872,N,11957.75563,E,1,12,0.60,21.9,M,6.9,M,,*40
$GNGSA,A,3,22,03,17,06,19,28,09,01,23,02,,,1.08,0.60,0.90,1*0D
$GNGSA,A,3,03,04,12,06,08,01,15,10,11,,,,1.08,0.60,0.90,4*0C
$GPGSV,3,1,11,01,06,060,32,02,16,263,28,03,35,047,33,06,50,289,37,0*6D
$GPGSV,3,2,11,09,16,129,17,17,65,017,31,19,51,334,35,22,13,042,35,0*6B
$GPGSV,3,3,11,23,17,101,22,24,01,293,,28,51,182,36,0*5D
$BDGSV,4,1,13,01,48,144,37,02,38,236,29,03,54,199,32,04,34,121,32,0*7C
$BDGSV,4,2,13,05,17,256,,06,38,170,26,07,16,192,26,08,59,007,35,0*76
$BDGSV,4,3,13,09,17,189,,10,27,220,20,11,08,300,20,12,53,337,37,0*77
$BDGSV,4,4,13,15,50,322,24,0*42
$GNGLL,3000.20872,N,11957.75563,E,072640.00,A,A*75
$GNRMC,072641.00,A,3000.21066,N,11957.77187,E,51.341,82.49,290716,,,A,V*07
$GNVTG,82.49,T,,M,51.341,N,95.083,K,A*11
$GNGGA,072641.00,3000.21066,N,11957.77187,E,1,12,0.60,21.9,M,6.9,M,,*41
$GNGSA,A,3,22,03,17,06,19,28,09,01,23,02,,,1.08,0.60,0.90,1*0D
$GNGSA,A,3,03,04,12,06,08,01,15,10,11,,,,1.08,0.60,0.90,4*0C
$GPGSV,3,1,11,01,06,060,31,02,16,263,28,03,35,047,35,06,50,289,37,0*68
$GPGSV,3,2,11,09,16,129,19,17,65,017,31,19,51,334,35,22,13,042,34,0*64
$GPGSV,3,3,11,23,17,101,20,24,01,293,,28,51,182,36,0*5F
$BDGSV,4,1,13,01,48,144,38,02,38,236,30,03,54,199,31,04,34,121,32,0*78
$BDGSV,4,2,13,05,17,256,,06,38,170,26,07,16,192,27,08,59,007,36,0*74
$BDGSV,4,3,13,09,17,189,,10,27,220,22,11,08,301,22,12,53,337,38,0*79
$BDGSV,4,4,13,15,50,322,25,0*43
$GNGLL,3000.21066,N,11957.77187,E,072641.00,A,A*74
$GNRMC,072642.00,A,3000.21254,N,11957.78808,E,51.336,82.81,290716,,,A,V*02
$GNVTG,82.81,T,,M,51.336,N,95.074,K,A*1D
$GNGGA,072642.00,3000.21254,N,11957.78808,E,1,12,0.60,22.0,M,6.9,M,,*4A
$GNGSA,A,3,22,03,17,06,19,28,09,01,23,02,,,1.08,0.60,0.90,1*0D
$GNGSA,A,3,03,04,12,06,08,01,15,10,11,,,,1.08,0.60,0.90,4*0C
$GPGSV,3,1,11,01,06,060,31,02,16,263,29,03,35,047,35,06,50,289,37,0*69
$GPGSV,3,2,11,09,16,129,18,17,65,017,31,19,51,334,35,22,13,042,34,0*65
$GPGSV,3,3,11,23,17,101,16,24,01,293,,28,51,182,37,0*5B
$BDGSV,4,1,13,01,48,144,39,02,38,236,30,03,54,199,29,04,34,121,32,0*70
$BDGSV,4,2,13,05,17,256,,06,38,170,25,07,16,192,28,08,59,007,35,0*7B
$BDGSV,4,3,13,09,17,189,,10,27,220,25,11,08,301,21,12,53,338,38,0*72
$BDGSV,4,4,13,15,50,322,24,0*42
$GNGLL,3000.21254,N,11957.78808,E,072642.00,A,A*75
$GNRMC,072643.00,A,3000.21434,N,11957.80432,E,51.345,83.08,290716,,,A,V*05
$GNVTG,83.08,T,,M,51.345,N,95.091,K,A*12
$GNGGA,072643.00,3000.21434,N,11957.80432,E,1,12,0.60,22.1,M,6.9,M,,*48
$GNGSA,A,3,22,03,17,06,19,28,09,01,23,02,,,1.08,0.60,0.90,1*0D
$GNGSA,A,3,03,04,12,06,08,01,15,10,11,,,,1.08,0.60,0.90,4*0C
$GPGSV,3,1,11,01,06,060,25,02,16,263,29,03,35,047,36,06,50,289,38,0*60
$GPGSV,3,2,11,09,16,129,17,17,65,017,31,19,51,334,35,22,13,042,33,0*6D
$GPGSV,3,3,11,23,17,101,14,24,01,293,,28,51,182,37,0*59
$BDGSV,4,1,13,01,48,144,39,02,38,236,29,03,54,199,29,04,34,121,32,0*78
$BDGSV,4,2,13,05,17,256,,06,38,170,25,07,16,192,27,08,59,007,35,0*74
$BDGSV,4,3,13,09,17,189,,10,27,220,26,11,08,301,20,12,53,338,38,0*70
$BDGSV,4,4,13,15,50,322,23,0*45
$GNGLL,3000.21434,N,11957.80432,E,072643.00,A,A*76
$GNRMC,072644.00,A,3000.21607,N,11957.82061,E,51.178,83.32,290716,,,A,V*05
$GNVTG,83.32,T,,M,51.178,N,94.781,K,A*10
$GNGGA,072644.00,3000.21607,N,11957.82061,E,1,12,0.60,22.3,M,6.9,M,,*4F
$GNGSA,A,3,22,03,17,06,19,28,09,01,23,02,,,1.08,0.60,0.90,1*0D
$GNGSA,A,3,03,04,12,06,08,01,15,10,11,,,,1.08,0.60,0.90,4*0C
$GPGSV,3,1,11,01,06,060,28,02,16,263,29,03,35,047,37,06,50,289,37,0*63
$GPGSV,3,2,11,09,16,129,16,17,65,017,32,19,51,334,35,22,13,042,28,0*65
$GPGSV,3,3,11,23,17,101,12,24,01,293,,28,51,182,37,0*5F
$BDGSV,4,1,13,01,48,144,39,02,38,236,29,03,54,199,29,04,34,121,32,0*78
$BDGSV,4,2,13,05,17,256,,06,38,170,26,07,16,192,26,08,59,007,36,0*75
$BDGSV,4,3,13,09,17,189,,10,27,220,25,11,08,301,22,12,53,338,38,0*71
$BDGSV,4,4,13,15,50,322,23,0*45
$GNGLL,3000.21607,N,11957.82061,E,072644.00,A,A*73
$GNRMC,072645.00,A,3000.21779,N,11957.83695,E,51.277,83.47,290716,,,A,V*0E
$GNVTG,83.47,T,,M,51.277,N,94.965,K,A*1A
$GNGGA,072645.00,3000.21779,N,11957.83695,E,1,12,0.60,22.6,M,6.9,M,,*4F
$GNGSA,A,3,22,03,17,06,19,28,09,01,23,02,,,1.08,0.60,0.90,1*0D
$GNGSA,A,3,03,04,12,06,08,01,15,10,11,,,,1.08,0.60,0.90,4*0C
$GPGSV,3,1,11,01,06,060,29,02,16,263,29,03,35,047,38,06,50,289,37,0*6D
$GPGSV,3,2,11,09,16,129,17,17,65,017,32,19,51,334,35,22,13,042,32,0*6F
$GPGSV,3,3,11,23,17,101,11,24,01,293,,28,51,182,37,0*5C
$BDGSV,4,1,13,01,48,144,39,02,38,236,29,03,54,199,29,04,34,121,32,0*78
$BDGSV,4,2,13,05,17,256,,06,38,170,26,07,16,192,26,08,59,007,36,0*75
$BDGSV,4,3,13,09,17,189,,10,27,220,27,11,08,301,22,12,53,338,37,0*7C
$BDGSV,4,4,13,15,50,322,25,0*43
$GNGLL,3000.21779,N,11957.83695,E,072645.00,A,A*76
$GNRMC,072646.00,A,3000.21942,N,11957.85331,E,51.296,83.76,290716,,,A,V*0B
$GNVTG,83.76,T,,M,51.296,N,95.000,K,A*1C
$GNGGA,072646.00,3000.21942,N,11957.85331,E,1,12,0.62,22.7,M,6.9,M,,*44
$GNGSA,A,3,22,03,17,06,19,28,09,01,02,,,,1.11,0.62,0.92,1*04
$GNGSA,A,3,03,04,12,06,08,01,15,10,11,,,,1.11,0.62,0.92,4*04
$GPGSV,3,1,11,01,06,060,30,02,16,263,30,03,35,047,38,06,50,289,37,0*6D
$GPGSV,3,2,11,09,16,129,18,17,65,017,31,19,51,334,34,22,13,042,33,0*63
$GPGSV,3,3,11,23,17,101,09,24,01,293,,28,51,182,38,0*5A
$BDGSV,4,1,13,01,48,144,39,02,38,236,29,03,54,199,29,04,34,121,32,0*78
$BDGSV,4,2,13,05,17,256,,06,38,170,26,07,16,192,24,08,59,007,36,0*77
$BDGSV,4,3,13,09,17,189,,10,27,220,27,11,08,301,25,12,53,338,38,0*74
$BDGSV,4,4,13,15,50,322,26,0*40
$GNGLL,3000.21942,N,11957.85331,E,072646.00,A,A*7E
$GNRMC,072647.00,A,3000.22101,N,11957.86974,E,51.456,84.03,290716,,,A,V*01
$GNVTG,84.03,T,,M,51.456,N,95.297,K,A*1F
$GNGGA,072647.00,3000.22101,N,11957.86974,E,1,12,0.60,22.8,M,6.9,M,,*4C
$GNGSA,A,3,22,03,17,06,19,28,09,01,23,02,,,1.08,0.60,0.90,1*0D
$GNGSA,A,3,03,04,12,06,08,01,15,10,11,,,,1.08,0.60,0.90,4*0C
$GPGSV,3,1,11,01,05,061,29,02,16,263,31,03,35,047,39,06,50,289,37,0*67
$GPGSV,3,2,11,09,16,129,18,17,65,017,31,19,51,334,33,22,13,042,33,0*64
$GPGSV,3,3,11,23,17,101,12,24,01,293,,28,51,182,37,0*5F
$BDGSV,4,1,13,01,48,144,39,02,38,236,29,03,54,199,29,04,34,121,32,0*78
$BDGSV,4,2,13,05,17,256,,06,38,170,25,07,16,192,25,08,59,007,37,0*74
$BDGSV,4,3,13,09,17,189,,10,27,220,28,11,08,301,24,12,53,338,37,0*75
$BDGSV,4,4,13,15,50,322,27,0*41
$GNGLL,3000.22101,N,11957.86974,E,072647.00,A,A*7B
$GNRMC,072648.00,A,3000.22252,N,11957.88619,E,51.487,84.34,290716,,,A,V*09
$GNVTG,84.34,T,,M,51.487,N,95.355,K,A*18
$GNGGA,072648.00,3000.22252,N,11957.88619,E,1,12,0.60,23.2,M,6.9,M,,*47
$GNGSA,A,3,22,03,17,06,19,28,09,01,23,02,,,1.08,0.60,0.90,1*0D
$GNGSA,A,3,03,04,12,06,08,01,15,10,11,,,,1.08,0.60,0.90,4*0C
$GPGSV,3,1,11,01,05,061,21,02,16,264,32,03,35,047,38,06,50,289,37,0*6A
$GPGSV,3,2,11,09,16,129,19,17,65,017,25,19,51,334,32,22,13,042,30,0*62
$GPGSV,3,3,11,23,17,101,13,24,01,293,,28,51,182,37,0*5E
$BDGSV,4,1,13,01,48,144,39,02,38,236,30,03,54,199,30,04,34,121,31,0*7B
$BDGSV,4,2,13,05,17,256,,06,38,170,24,07,16,192,23,08,59,007,34,0*70
$BDGSV,4,3,13,09,17,189,,10,27,220,33,11,08,301,25,12,53,338,36,0*7F
$BDGSV,4,4,13,15,50,322,27,0*41
$GNGLL,3000.22252,N,11957.88619,E,072648.00,A,A*7B
$GNRMC,072649.00,A,3000.22393,N,11957.90267,E,51.638,84.62,290716,,,A,V*05
$GNVTG,84.62,T,,M,51.638,N,95.634,K,A*1F
$GNGGA,072649.00,3000.22393,N,11957.90267,E,1,12,0.65,23.4,M,6.9,M,,*4D
$GNGSA,A,3,22,03,17,06,19,28,09,01,23,02,,,1.24,0.65,1.05,1*0B
$GNGSA,A,3,03,04,12,06,08,01,15,10,,,,,1.24,0.65,1.05,4*0A
$GPGSV,3,1,11,01,05,061,29,02,16,264,32,03,35,047,38,06,50,289,37,0*62
$GPGSV,3,2,11,09,16,129,19,17,65,017,25,19,51,334,32,22,13,042,30,0*62
$GPGSV,3,3,11,23,17,101,17,24,01,293,,28,51,182,37,0*5A
$BDGSV,4,1,13,01,48,144,38,02,38,236,30,03,54,199,33,04,34,121,32,0*7A
$BDGSV,4,2,13,05,17,256,,06,38,170,25,07,16,192,20,08,59,007,34,0*72
$BDGSV,4,3,13,09,17,189,,10,27,220,33,11,08,301,29,12,53,338,35,0*70
$BDGSV,4,4,13,15,50,322,28,0*4E
$GNGLL,3000.22393,N,11957.90267,E,072649.00,A,A*72
$GNRMC,072650.00,A,3000.22523,N,11957.91919,E,51.765,84.96,290716,,,A,V*01
$GNVTG,84.96,T,,M,51.765,N,95.869,K,A*1B
$GNGGA,072650.00,3000.22523,N,11957.91919,E,1,12,0.60,23.7,M,6.9,M,,*4D
$GNGSA,A,3,22,03,17,06,19,28,09,01,23,02,,,1.08,0.60,0.90,1*0D
$GNGSA,A,3,03,04,12,06,08,01,15,10,11,,,,1.08,0.60,0.90,4*0C
$GPGSV,3,1,11,01,05,061,33,02,16,264,33,03,35,047,38,06,50,289,38,0*67
$GPGSV,3,2,11,09,16,129,18,17,65,017,25,19,51,334,31,22,13,042,30,0*60
$GPGSV,3,3,11,23,17,101,18,24,01,293,,28,51,182,38,0*5A
$BDGSV,4,1,13,01,48,144,38,02,38,236,29,03,54,199,33,04,34,121,32,0*72
$BDGSV,4,2,13,05,17,256,,06,38,170,25,07,16,192,17,08,59,007,34,0*76
$BDGSV,4,3,13,09,17,189,,10,27,220,32,11,08,301,30,12,53,338,32,0*7E
$BDGSV,4,4,13,15,50,322,27,0*41
$GNGLL,3000.22523,N,11957.91919,E,072650.00,A,A*74
$GNRMC,072651.00,A,3000.22649,N,11957.93577,E,51.910,85.23,290716,,,A,V*0A
$GNVTG,85.23,T,,M,51.910,N,96.138,K,A*16
$GNGGA,072651.00,3000.22649,N,11957.93577,E,1,12,0.60,24.1,M,6.9,M,,*44
$GNGSA,A,3,22,03,17,06,19,28,09,01,23,02,,,1.08,0.60,0.90,1*0D
$GNGSA,A,3,03,04,12,06,08,01,15,10,11,,,,1.08,0.60,0.90,4*0C
$GPGSV,3,1,11,01,05,061,26,02,16,264,33,03,35,047,38,06,50,290,37,0*64
$GPGSV,3,2,11,09,16,129,18,17,65,017,25,19,51,334,31,22,13,042,30,0*60
$GPGSV,3,3,11,23,17,101,17,24,01,293,,28,51,182,36,0*5B
$BDGSV,4,1,13,01,48,144,38,02,38,236,30,03,54,199,33,04,34,121,31,0*79
$BDGSV,4,2,13,05,17,256,,06,38,170,25,07,16,192,16,08,59,007,34,0*77
$BDGSV,4,3,13,09,17,189,,10,27,220,32,11,08,301,30,12,53,338,32,0*7E
$BDGSV,4,4,13,15,50,322,28,0*4E
$GNGLL,3000.22649,N,11957.93577,E,072651.00,A,A*7C
$GNRMC,072652.00,A,3000.22767,N,11957.95237,E,52.102,85.55,290716,,,A,V*08
$GNVTG,85.55,T,,M,52.102,N,96.493,K,A*1B
$GNGGA,072652.00,3000.22767,N,11957.95237,E,1,12,0.60,24.2,M,6.9,M,,*4C
$GNGSA,A,3,22,03,17,06,19,28,09,01,23,02,,,1.08,0.60,0.90,1*0D
$GNGSA,A,3,03,04,12,06,08,01,15,10,11,,,,1.08,0.60,0.90,4*0C
$GPGSV,3,1,11,01,05,061,26,02,16,264,33,03,35,047,37,06,50,290,38,0*64
$GPGSV,3,2,11,09,16,129,17,17,65,017,27,19,51,334,30,22,13,042,29,0*64
$GPGSV,3,3,11,23,17,101,18,24,01,293,,28,51,182,37,0*55
$BDGSV,4,1,13,01,48,144,38,02,38,236,29,03,54,199,34,04,34,121,31,0*76
$BDGSV,4,2,13,05,17,256,,06,38,170,24,07,16,192,14,08,59,007,33,0*73
$BDGSV,4,3,13,09,17,189,,10,27,220,31,11,08,301,29,12,53,338,32,0*75
$BDGSV,4,4,13,15,50,322,27,0*41
$GNGLL,3000.22767,N,11957.95237,E,072652.00,A,A*77
$GNRMC,072653.00,A,3000.22877,N,11957.96903,E,52.221,85.82,290716,,,A,V*00
$GNVTG,85.82,T,,M,52.221,N,96.714,K,A*1F
$GNGGA,072653.00,3000.22877,N,11957.96903,E,1,12,0.60,24.4,M,6.9,M,,*4A
$GNGSA,A,3,22,03,17,06,19,28,09,01,23,02,,,1.08,0.60,0.90,1*0D
$GNGSA,A,3,03,04,12,06,08,01,15,10,11,,,,1.08,0.60,0.90,4*0C
$GPGSV,3,1,11,01,05,061,24,02,16,264,33,03,35,047,37,06,50,290,35,0*6B
$GPGSV,3,2,11,09,16,129,17,17,65,017,27,19,51,334,31,22,13,042,29,0*65
$GPGSV,3,3,11,23,17,101,21,24,01,293,,28,51,182,37,0*5F
$BDGSV,4,1,13,01,48,144,38,02,38,236,30,03,54,199,34,04,34,121,31,0*7E
$BDGSV,4,2,13,05,17,256,,06,38,170,25,07,16,192,15,08,59,007,32,0*72
$BDGSV,4,3,13,09,17,189,,10,27,220,31,11,08,301,27,12,53,338,32,0*7B
$BDGSV,4,4,13,15,50,322,28,0*4E
$GNGLL,3000.22877,N,11957.96903,E,072653.00,A,A*77
$GNRMC,072654.00,A,3000.22978,N,11957.98511,E,49.674,86.14,290716,,,A,V*0A
$GNVTG,86.14,T,,M,49.674,N,91.996,K,A*1E
$GNGGA,072654.00,3000.22978,N,11957.98511,E,1,12,0.60,24.5,M,6.9,M,,*43
$GNGSA,A,3,22,03,17,06,19,28,09,01,23,02,,,1.08,0.60,0.90,1*0D
$GNGSA,A,3,03,04,12,06,08,01,15,10,11,,,,1.08,0.60,0.90,4*0C
$GPGSV,3,1,11,01,05,061,31,02,16,264,32,03,35,047,37,06,50,290,37,0*6C
$GPGSV,3,2,11,09,16,129,19,17,65,017,27,19,51,334,34,22,13,042,31,0*67
$GPGSV,3,3,11,23,17,101,22,24,01,293,,28,51,182,37,0*5C
$BDGSV,4,1,13,01,48,144,39,02,38,236,30,03,54,199,34,04,34,121,31,0*7F
$BDGSV,4,2,13,05,17,256,,06,38,170,24,07,16,192,15,08,59,007,31,0*70
$BDGSV,4,3,13,09,17,189,,10,27,220,30,11,08,301,26,12,53,338,33,0*7A
$BDGSV,4,4,13,15,50,322,28,0*4E
$GNGLL,3000.22978,N,11957.98511,E,072654.00,A,A*7F
$GNRMC,072655.00,A,3000.23063,N,11958.00007,E,45.654,86.34,290716,,,A,V*09
$GNVTG,86.34,T,,M,45.654,N,84.551,K,A*11
$GNGGA,072655.00,3000.23063,N,11958.00007,E,1,12,0.60,24.7,M,6.9,M,,*4E
$GNGSA,A,3,22,03,17,06,19,28,09,01,23,02,,,1.08,0.60,0.90,1*0D
$GNGSA,A,3,03,04,12,06,08,01,15,10,11,,,,1.08,0.60,0.90,4*0C
$GPGSV,3,1,11,01,05,061,31,02,16,264,31,03,35,047,36,06,50,290,35,0*6C
$GPGSV,3,2,11,09,16,129,23,17,65,017,31,19,51,334,34,22,13,042,31,0*69
$GPGSV,3,3,11,23,17,101,26,24,01,293,,28,51,182,38,0*57
$BDGSV,4,1,13,01,48,144,38,02,38,236,31,03,54,199,33,04,34,121,31,0*78
$BDGSV,4,2,13,05,17,256,,06,38,170,23,07,16,192,15,08,59,007,31,0*77
$BDGSV,4,3,13,09,17,189,,10,27,220,34,11,08,301,31,12,53,338,32,0*79
$BDGSV,4,4,13,15,50,322,28,0*4E
$GNGLL,3000.23063,N,11958.00007,E,072655.00,A,A*70
$GNRMC,072656.00,A,3000.23142,N,11958.01375,E,41.648,86.38,290716,,,A,V*0A
$GNVTG,86.38,T,,M,41.648,N,77.132,K,A*19
$GNGGA,072656.00,3000.23142,N,11958.01375,E,1,12,0.60,24.9,M,6.9,M,,*46
$GNGSA,A,3,22,03,17,06,19,28,09,01,23,02,,,1.08,0.60,0.90,1*0D
$GNGSA,A,3,03,04,12,06,08,01,15,10,11,,,,1.08,0.60,0.90,4*0C
$GPGSV,3,1,11,01,05,061,31,02,16,264,31,03,35,047,37,06,50,290,35,0*6D
$GPGSV,3,2,11,09,16,129,23,17,65,017,31,19,51,334,34,22,13,042,32,0*6A
$GPGSV,3,3,11,23,17,101,26,24,01,293,,28,51,182,38,0*57
$BDGSV,4,1,13,01,48,144,39,02,38,236,31,03,54,199,34,04,34,121,31,0*7E
$BDGSV,4,2,13,05,17,256,,06,38,170,23,07,16,192,15,08,59,007,31,0*77
$BDGSV,4,3,13,09,17,189,,10,27,220,34,11,08,301,25,12,53,338,31,0*7F
$BDGSV,4,4,13,15,50,322,27,0*41
$GNGLL,3000.23142,N,11958.01375,E,072656.00,A,A*76
$GNRMC,072657.00,A,3000.23212,N,11958.02631,E,38.368,86.54,290716,,,A,V*08
$GNVTG,86.54,T,,M,38.368,N,71.057,K,A*1E
$GNGGA,072657.00,3000.23212,N,11958.02631,E,1,12,0.60,25.0,M,6.9,M,,*4F
